City_ID,City,Lat,Lng,Max Temp,Humidity,Cloudiness,Wind Speed,Country,Date
0,ushuaia,-54.8,-68.3,8.81,53,0,7.2,AR,1704674840
1,sitka,57.0531,-135.33,4.94,52,100,8.75,US,1704674841
2,avarua,-21.2078,-159.775,28.03,83,75,7.2,CK,1704674842
3,port alfred,-33.5906,26.891,18.43,96,100,0.45,ZA,1704674843
4,grytviken,-54.2811,-36.5092,4.97,77,19,0.47,GS,1704674844
5,qaqortoq,60.7167,-46.0333,1.49,97,99,3.91,GL,1704674845
6,port-aux-francais,-49.35,70.2167,8.03,94,77,14.64,TF,1704674846
7,invercargill,-46.4,168.35,21.12,60,100,2.68,NZ,1704674847
8,lebu,-37.6167,-73.65,14.28,87,0,2.98,CL,1704674848
9,blackmans bay,-43.0167,147.3167,15.07,94,100,0.45,AU,1704674849
10,labrador city,52.9463,-66.9114,-30.05,76,0,0.0,CA,1704674850
11,nadi,-17.8,177.4167,31.0,66,40,6.17,FJ,1704674851
12,bilibino,68.0546,166.4372,-30.75,97,100,0.75,RU,1704674851
13,ailuk,10.2197,169.9797,26.66,65,34,7.27,MH,1704674853
14,sao fidelis,-21.6461,-41.7469,24.97,95,19,0.8,BR,1704674854
15,waitangi,-43.9535,-176.5597,14.9,66,8,3.24,NZ,1704674855
16,nar'yan-mar,67.6713,53.087,-14.94,94,12,4.02,RU,1704674856
17,klyuchi,52.2667,79.1667,0.05,95,100,9.77,RU,1704674856
18,uturoa,-16.7333,-151.4333,27.5,76,100,3.27,PF,1704674857
19,ribeira grande,38.5167,-28.7,15.43,76,50,3.58,PT,1704674858
20,ilulissat,69.2167,-51.1,-6.99,68,100,7.72,GL,1704674859
21,papatowai,-46.5619,169.4708,18.25,58,100,2.05,NZ,1704674860
22,thunder bay,48.4001,-89.3168,-12.01,78,0,3.6,CA,1704674676
23,port elizabeth,-33.918,25.5701,18.94,95,75,6.17,ZA,1704674862
24,orumiyeh,37.5527,45.0761,-2.25,86,0,2.06,IR,1704674863
25,puerto ayora,-0.7393,-90.3518,25.31,95,100,1.34,EC,1704674863
26,adamstown,-25.066,-130.1015,22.58,75,100,4.87,PN,1704674864
27,puerto natales,-51.7236,-72.4875,7.88,65,100,7.48,CL,1704674785
28,hermanus,-34.4187,19.2345,16.21,76,17,2.94,ZA,1704674866
29,olonkinbyen,70.9221,-8.7187,2.02,79,100,10.57,SJ,1704674866
30,papao,-17.75,-149.55,29.82,81,36,5.93,PF,1704674867
31,thompson,55.7435,-97.8558,-27.91,83,20,1.03,CA,1704674868
32,cienfuegos,22.1461,-80.4356,25.08,88,37,1.54,CU,1704674868
33,mount pearl,47.5166,-52.7813,-4.92,80,20,10.29,CA,1704674812
34,vrangel',42.7297,133.0839,-12.25,58,7,4.52,RU,1704674870
35,isafjordur,66.0755,-23.124,4.29,95,100,5.47,IS,1704674871
36,zavallya,48.2135,30.0156,-4.71,92,100,8.7,UA,1704674871
37,dazuocun,24.8862,118.9643,12.74,73,15,10.55,CN,1704674872
38,yaren,-0.5472,166.916,29.17,72,100,4.95,NR,1704674873
39,ambalavao,-21.8333,46.9333,20.41,97,100,0.95,MG,1704674873
40,rosetta,31.4044,30.4164,17.41,62,10,3.46,EG,1704674874
41,bardai,11.65,7.2333,18.08,16,0,3.73,NG,1704674875
42,hithadhoo,-0.6,73.0833,28.28,75,94,4.77,MV,1704674876
43,port lincoln,-34.7333,135.8667,17.73,71,95,6.29,AU,1704674876
44,goure,13.9835,10.2704,17.53,18,0,3.84,NE,1704674877
45,bethel,41.3712,-73.414,1.05,75,100,1.54,US,1704674878
46,east london,-33.0153,27.9116,19.71,88,100,1.42,ZA,1704674879
47,lompoc,34.6391,-120.4579,13.77,55,0,8.23,US,1704674879
48,kone,-21.0595,164.8658,29.51,63,100,2.11,NC,1704674880
49,remire-montjoly,4.9167,-52.2667,27.02,74,0,1.54,GF,1704674881
50,ust-nera,64.5667,143.2,-43.68,98,79,1.57,RU,1704674881
51,port mathurin,-19.6833,63.4167,25.05,88,40,1.03,MU,1704674882
52,punta arenas,-53.15,-70.9167,9.06,61,100,8.75,CL,1704674730
53,micoud,13.8167,-60.9,27.96,74,40,11.32,LC,1704674884
54,kamaishi,39.2667,141.8833,1.35,41,3,6.94,JP,1704674884
55,viitasaari,63.0667,25.8667,-5.1,88,100,5.14,FI,1704674885
56,jamestown,42.097,-79.2353,0.57,99,100,4.12,US,1704674491
57,fort st. john,56.2499,-120.8529,-22.06,84,20,2.57,CA,1704674732
58,sultanah,24.4926,39.5857,21.25,35,0,2.06,SA,1704674887
59,constantia,44.1833,28.65,4.38,89,100,7.69,RO,1704674646
60,san pedro,14.35,121.0167,29.06,76,20,6.26,PH,1704674889
61,la passe,45.5549,-0.8967,5.13,84,100,5.02,FR,1704674889
62,heber city,40.5069,-111.4132,-4.2,93,100,1.71,US,1704674769
63,tamanrasset,22.785,5.5228,10.95,15,0,2.06,DZ,1704674891
64,carnarvon,-24.8667,113.6333,24.81,75,0,6.62,AU,1704674892
65,lakatoro,-16.0999,167.4164,29.37,72,92,1.28,VU,1704674892
66,illizi,26.4833,8.4667,6.89,28,100,1.92,DZ,1704674893
67,tafuna,-14.3358,-170.72,30.97,84,75,3.6,AS,1704674894
68,tosontsengel,48.7567,98.2839,-20.64,100,100,0.75,MN,1704674895
69,utrik,11.2278,169.8474,26.72,66,16,7.81,MH,1704674895
70,menongue,-14.6585,17.691,16.84,97,92,1.81,AO,1704674896
71,kodiak,57.79,-152.4072,2.73,70,0,1.54,US,1704674897
72,kirksville,40.1948,-92.5833,-1.03,79,100,2.06,US,1704674870
73,magadan,59.5667,150.8,-30.29,81,6,2.37,RU,1704674898
74,alice springs,-23.7,133.8833,29.75,62,40,4.14,AU,1704674899
75,san luis de la loma,17.2706,-100.8939,24.86,77,100,0.38,MX,1704674900
76,fale old settlement,-9.3852,-171.2468,28.28,72,98,3.87,TK,1704674900
77,cole harbour,44.6724,-63.4751,-3.91,79,100,3.58,CA,1704674901
78,albany,42.6001,-73.9662,-0.8,89,100,0.45,US,1704674818
79,christchurch,-43.5333,172.6333,29.74,53,100,7.72,NZ,1704674727
80,keflavik,64.0049,-22.5624,8.24,100,100,11.32,IS,1704674903
81,moyale,3.5167,39.0584,21.62,40,50,3.25,KE,1704674904
82,jatoba,-9.1831,-38.2689,27.11,36,0,4.39,BR,1704674905
83,puerto baquerizo moreno,-0.9,-89.6,24.79,83,96,3.7,EC,1704674905
84,mumbwa,-14.9783,27.0619,20.05,79,74,2.23,ZM,1704674906
85,udachny,66.4167,112.4,-25.51,96,100,4.91,RU,1704674907
86,yellowknife,62.456,-114.3525,-33.73,79,75,1.54,CA,1704674907
87,enewetak,11.3474,162.3373,27.05,70,2,8.9,MH,1704674908
88,laojunmiao,39.8333,97.7333,-4.64,32,100,1.71,CN,1704674909
89,st. john's,47.5649,-52.7093,-4.92,79,20,10.29,CA,1704674656
90,tefenni,37.3097,29.7754,6.39,85,95,2.84,TR,1704674910
91,taoudenni,22.6783,-3.9836,20.67,27,0,2.57,ML,1704674911
92,hailar,49.2,119.7,-28.81,99,20,1.98,CN,1704674912
93,akureyri,65.6835,-18.0878,6.96,65,0,8.75,IS,1704674912
94,pangkalanbuun,-2.6833,111.6167,26.41,87,100,1.36,ID,1704674913
95,deniliquin,-35.5333,144.9667,26.71,58,61,3.31,AU,1704674914
96,geraldton,-28.7667,114.6,28.23,61,0,6.17,AU,1704674915
97,longyearbyen,78.2186,15.6401,-17.09,66,75,6.17,SJ,1704674915
98,tura,25.5198,90.2201,13.04,69,0,1.08,IN,1704674916
99,hamilton,39.1834,-84.5333,2.83,79,100,2.68,US,1704674066
100,mejit,10.2753,170.8646,26.67,66,16,6.83,MH,1704674917
101,staraya vichuga,57.2683,41.8787,-22.67,100,98,3.19,RU,1704674918
102,forster,-32.1667,152.5167,29.65,60,100,6.06,AU,1704674919
103,emirdag,39.0197,31.15,6.89,85,98,3.5,TR,1704674802
104,katabu,-4.9333,122.5167,27.85,82,98,1.71,ID,1704674920
105,ampanihy,-24.7,44.75,23.9,85,5,0.52,MG,1704674921
106,faya-largeau,17.9257,19.1043,18.92,14,46,6.29,TD,1704674922
107,boromo,11.75,-2.9333,25.45,17,14,1.87,BF,1704674923
108,imbituba,-28.24,-48.6703,23.08,94,22,5.62,BR,1704674923
109,namibe,-15.1961,12.1522,22.35,83,100,2.93,AO,1704674925
110,edinburgh of the seven seas,-37.0676,-12.3116,16.47,74,100,4.99,SH,1704674925
111,quesnel,52.9999,-122.5029,-4.72,63,0,0.0,CA,1704674721
112,vorgashor,67.5833,63.95,-22.09,99,99,3.38,RU,1704674927
113,necochea,-38.5473,-58.7368,18.03,80,100,3.23,AR,1704674928
114,whitehorse,60.7161,-135.0538,-17.77,81,75,8.23,CA,1704674929
115,lhuentse,27.6679,91.1839,7.98,79,73,1.22,BT,1704674929
116,umm kaddadah,13.6017,26.6876,16.48,33,4,5.29,SD,1704674930
117,moires,35.0532,24.8744,14.42,82,97,5.81,GR,1704674931
118,lorengau,-2.0226,147.2712,28.72,76,100,2.08,PG,1704674931
119,west island,-12.1568,96.8225,27.99,78,40,6.69,CC,1704674932
120,inhambane,-23.865,35.3833,23.21,83,8,2.08,MZ,1704674933
121,dese,11.1333,39.6333,8.47,84,11,0.59,ET,1704674934
122,yueyang,29.3333,113.0919,8.37,60,100,2.4,CN,1704674934
123,rongelap,11.1635,166.8941,27.06,71,65,7.13,MH,1704674935
124,iqaluit,63.7506,-68.5145,-23.15,77,75,1.03,CA,1704674936
125,badger,64.8,-147.5333,-10.07,81,40,0.0,US,1704674937
126,arkhangel'sk,64.5401,40.5433,-11.04,92,75,5.0,RU,1704674937
127,aykhal,66.0,111.5,-28.73,99,100,3.03,RU,1704674938
128,callao,-12.0667,-77.15,24.84,69,75,8.23,PE,1704674939
129,nantucket,41.2835,-70.0995,1.11,83,100,14.23,US,1704674698
130,leua,48.2156,18.6071,-0.28,67,86,2.72,SK,1704674940
131,portland,45.5234,-122.6762,7.56,89,100,1.34,US,1704674506
132,nikolayevsk-on-amure,53.1406,140.73,-19.69,93,100,1.53,RU,1704674942
133,aquitania,5.5197,-72.8875,8.26,91,100,0.6,CO,1704674942
134,kirensk,57.7853,108.1119,-31.14,100,84,1.49,RU,1704674943
135,el calafate,-50.3408,-72.2768,9.23,52,87,5.86,AR,1704674944
136,victorica,-36.2151,-65.4359,19.77,76,0,6.07,AR,1704674945
137,sosnogorsk,63.6023,53.8817,-19.26,98,97,2.2,RU,1704674946
138,tazacorte,28.629,-17.9293,18.42,90,0,3.6,ES,1704674946
139,chinhoyi,-17.3667,30.2,18.59,87,65,2.12,ZW,1704674948
140,greymouth,-42.4667,171.2,19.53,60,98,2.7,NZ,1704674858
141,bredasdorp,-34.5322,20.0403,16.0,76,81,1.79,ZA,1704674950
142,winnemucca,40.973,-117.7357,-1.97,80,100,4.12,US,1704674950
143,sao joao da barra,-21.6403,-41.0511,25.05,86,54,2.75,BR,1704674951
144,vadso,70.0744,29.7487,-3.51,74,75,4.63,NO,1704674952
145,hawaiian paradise park,19.5933,-154.9731,26.04,83,40,6.17,US,1704674953
146,massawa,15.6097,39.45,26.0,67,4,1.47,ER,1704674954
147,salinopolis,-0.6136,-47.3561,25.88,86,100,3.73,BR,1704674955
148,copiapo,-27.3667,-70.3333,15.83,53,0,1.22,CL,1704674368
149,micco,27.8806,-80.5003,16.12,86,100,4.71,US,1704674956
150,anadyr,64.75,177.4833,-13.72,84,100,4.0,RU,1704674957
151,iskateley,67.6803,53.1512,-14.99,94,10,4.02,RU,1704674958
152,mont-laurier,46.5501,-75.4993,-7.21,99,91,0.49,CA,1704674882
153,san patricio,28.017,-97.5169,19.91,67,96,7.44,US,1704674960
154,dudinka,69.4058,86.1778,-21.85,98,100,8.05,RU,1704674715
155,prince rupert,54.3161,-130.3201,3.83,80,75,8.23,CA,1704674961
156,yangchun,22.1667,111.7833,19.63,74,92,1.3,CN,1704674962
157,laascaanood,8.4774,47.3597,17.0,69,22,4.01,SO,1704674963
158,santa vitoria do palmar,-33.5189,-53.3681,20.52,95,100,5.07,BR,1704674964
159,colonia,50.9333,6.95,-0.02,63,100,6.69,DE,1704674811
160,petropavlovsk-kamchatsky,53.0452,158.6483,-15.86,78,20,5.36,RU,1704674965
161,ponta delgada,37.7333,-25.6667,17.4,67,40,5.66,PT,1704674828
162,teluk nibung,3.001,99.8164,24.67,92,100,0.82,ID,1704674968
163,dolores,-36.3132,-57.6792,19.15,89,87,3.25,AR,1704674968
164,olinda,-8.0089,-34.8553,27.85,74,40,3.09,BR,1704674969
165,ambalangoda,6.2355,80.0538,24.45,90,91,1.8,LK,1704674871
166,i-n-salah,27.1935,2.4607,14.46,24,89,3.09,DZ,1704674971
167,xiaoweizhai,26.1903,107.5125,7.97,94,100,1.44,CN,1704674972
168,camayenne,9.535,-13.6878,27.05,83,100,2.06,GN,1704674816
169,tazovsky,67.4667,78.7,-26.02,100,69,3.19,RU,1704674973
170,georgetown,5.4112,100.3354,26.64,90,20,1.03,MY,1704674685
171,fortuna,40.5982,-124.1573,9.25,82,100,0.0,US,1704674975
172,begoro,6.3871,-0.3774,23.05,86,0,1.46,GH,1704674976
173,kuytun,54.3419,101.5036,-26.67,100,91,0.76,RU,1704674977
174,shatki,55.1887,44.1249,-24.48,100,53,2.34,RU,1704674978
175,kavieng,-2.5744,150.7967,29.94,68,99,1.89,PG,1704674979
176,sebdou,34.637,-1.3314,-0.39,45,0,2.35,DZ,1704674979
177,msowero,-6.5333,37.2,21.73,96,100,0.94,TZ,1704674980
178,nuuk,64.1835,-51.7216,-3.66,80,100,7.72,GL,1704674981
179,baise city,23.8997,106.6133,20.75,99,100,0.92,CN,1704674982
180,raton,36.9034,-104.4391,-0.81,68,20,2.06,US,1704674982
181,chibougamau,49.9168,-74.3659,-13.21,85,100,2.06,CA,1704674983
182,yanam,16.7333,82.2167,22.51,77,25,3.84,IN,1704674984
183,thisted,56.9552,8.6949,-6.03,80,10,4.11,DK,1704674984
184,new norfolk,-42.7826,147.0587,15.72,88,100,2.12,AU,1704674987
185,villa yapacani,-17.4,-63.8333,24.96,88,95,1.59,BO,1704674987
186,betio village,1.358,172.9211,31.02,76,97,6.44,KI,1704674988
187,vikhorevka,56.1201,101.1636,-19.23,100,98,1.14,RU,1704674989
188,xilin hot,43.9667,116.0333,-14.69,92,98,1.92,CN,1704674990
189,filingue,14.3521,3.3168,22.52,13,100,3.56,NE,1704674990
190,kapuskasing,49.4169,-82.4331,-8.95,86,100,5.14,CA,1704674707
191,talnakh,69.4865,88.3972,-22.11,98,100,4.68,RU,1704674824
192,vilyuysk,63.7553,121.6247,-33.33,98,100,1.79,RU,1704674992
193,wailua homesteads,22.0669,-159.378,26.24,73,75,7.72,US,1704674993
194,kingscliff,-28.2667,153.5667,26.52,89,100,2.57,AU,1704674994
195,borivli,19.2333,72.85,25.95,65,20,2.06,IN,1704674995
196,yuzhno-kurilsk,44.0306,145.8556,-1.46,79,23,7.49,RU,1704674995
197,saldanha,-33.0117,17.9442,16.03,77,0,9.93,ZA,1704674996
198,angaur state,6.906,134.13,28.14,80,100,5.75,PW,1704674997
199,arteche,12.2645,125.4048,27.08,88,99,4.85,PH,1704674997
200,bodo,67.28,14.405,4.02,70,75,9.26,NO,1704674999
201,ajaokuta,7.5623,6.655,25.68,24,1,1.54,NG,1704675000
202,kingston,17.997,-76.7936,27.53,86,20,3.09,JM,1704674714
203,hun,29.1268,15.9477,10.84,32,44,2.97,LY,1704675001
204,kerikeri,-35.2268,173.9474,22.2,59,0,3.94,NZ,1704675002
205,yantarnyy,54.8717,19.9381,-17.08,82,36,8.12,RU,1704675003
206,kushiro,42.975,144.3747,-1.47,69,20,0.51,JP,1704675004
207,naze,28.3667,129.4833,13.51,64,83,4.12,JP,1704675005
208,salas,43.4118,-6.2602,5.84,84,100,1.86,ES,1704675006
209,pitimbu,-7.4706,-34.8086,26.33,76,0,3.53,BR,1704675008
210,college,64.8569,-147.8028,-10.03,79,100,0.0,US,1704675009
211,algeciras,36.1333,-5.4505,11.82,54,1,6.17,ES,1704674759
212,prado,-17.3411,-39.2208,24.86,91,100,1.8,BR,1704675012
213,mutoko,-17.397,32.2268,17.63,91,67,1.45,ZW,1704675013
214,palmer,42.1584,-72.3287,-2.87,80,99,1.94,US,1704675014
215,tangalle,6.024,80.7911,25.09,90,75,3.64,LK,1704675014
216,south sioux city,42.4739,-96.4136,-3.78,82,0,3.13,US,1704675016
217,afaahiti,-17.75,-149.2833,28.93,81,63,4.81,PF,1704675016
218,tatarsk,55.219,75.9828,-1.64,97,100,5.34,RU,1704675018
219,chegdomyn,51.1167,133.0167,-27.85,95,73,0.13,RU,1704675019
220,quartu sant'elena,39.2419,9.1839,10.04,75,40,6.69,IT,1704675021
221,north bay,46.3168,-79.4663,-7.16,88,0,1.54,CA,1704674974
222,na mom,6.9586,100.5568,24.91,100,75,0.0,TH,1704675023
223,rypin,53.066,19.4094,-9.08,70,100,5.72,PL,1704675024
224,mount isa,-20.7333,139.5,27.87,78,100,2.06,AU,1704675025
225,fort mcmurray,56.7268,-111.381,-20.23,77,100,2.06,CA,1704674741
226,la ronge,55.1001,-105.2842,-24.86,77,20,0.51,CA,1704675027
227,salekhard,66.53,66.6019,-31.21,100,98,0.78,RU,1704675028
228,mabaruma,8.2,-59.7833,22.33,90,6,1.4,GY,1704675030
229,pariaman,-0.619,100.12,25.03,83,100,1.46,ID,1704675030
230,pahlgam,34.0333,75.3333,-3.67,43,100,4.0,IN,1704675032
231,tateyama,34.9833,139.8667,7.75,45,0,8.06,JP,1704675032
232,lazaro cardenas,17.9583,-102.2,25.59,71,100,1.03,MX,1704675033
233,barcelos,41.5388,-8.6151,6.58,78,98,1.98,PT,1704675035
234,bubaque,11.2833,-15.8333,26.43,68,5,4.69,GW,1704675036
235,lihue,21.9789,-159.3672,26.58,73,75,7.72,US,1704675037
236,margaret river,-33.95,115.0667,24.33,50,92,1.71,AU,1704674924
237,changde,29.0464,111.6783,7.76,63,86,1.47,CN,1704675039
238,bereeda,11.8704,51.0579,23.74,56,8,6.3,SO,1704675040
239,madang,-5.2246,145.7966,28.53,73,72,1.76,PG,1704675041
240,nagqu,31.5,92.0,-16.93,59,0,1.65,CN,1704675042
241,kenora,49.8167,-94.4337,-15.46,78,20,3.09,CA,1704674777
242,mata-utu,-13.2816,-176.1745,28.89,74,100,4.73,WF,1704675043
243,dunedin,-45.8742,170.5036,17.65,69,100,2.83,NZ,1704675044
244,el matama,16.7095,33.3565,21.91,35,5,4.56,SD,1704675045
245,barakani,-12.1356,44.4317,27.14,79,65,2.3,KM,1704675046
246,saint-philippe,-21.3585,55.7679,24.77,82,54,3.39,RE,1704675047
247,sisimiut,66.9395,-53.6735,-10.71,83,100,5.79,GL,1704675048
248,tolanaro,-25.0319,46.9987,23.04,100,40,5.14,MG,1704675048
249,touros,-5.1989,-35.4608,27.04,75,18,3.8,BR,1704675049
250,vuktyl,63.8567,57.3094,-32.16,100,100,1.34,RU,1704675050
251,mudukulattur,9.3417,78.5139,23.81,92,61,4.27,IN,1704675051
252,tromso,69.6496,18.957,-0.99,86,75,3.09,NO,1704675051
253,yashan,22.1975,109.9419,19.0,73,89,0.77,CN,1704675052
254,acapulco de juarez,16.8634,-99.8901,27.9,74,75,1.54,MX,1704674989
255,codrington,-38.2667,141.9667,17.17,88,100,7.41,AU,1704675054
256,hassi messaoud,31.6804,6.0729,5.92,52,0,2.06,DZ,1704675055
257,quatre cocos,-20.2078,57.7625,25.06,76,97,3.22,MU,1704675055
258,smithers,54.7804,-127.1743,-3.82,100,75,1.54,CA,1704675056
259,georgievka,49.3314,81.5761,-4.13,87,100,8.64,KZ,1704675057
260,jolo,6.05,121.0167,28.46,74,100,1.16,PH,1704675058
261,queenstown,-31.8976,26.8753,15.45,81,98,1.74,ZA,1704675058
262,chernyshevsk,52.5243,117.0174,-32.41,100,22,0.11,RU,1704675059
263,akobo,7.4344,3.9497,24.26,86,2,0.92,NG,1704675060
264,cold lake,54.4502,-110.2017,-20.03,84,75,2.57,CA,1704674974
265,talakan,50.3167,130.3667,-24.65,92,95,1.34,RU,1704675061
266,nadym,65.5333,72.5167,-19.77,94,100,3.16,RU,1704675062
267,oliveira dos brejinhos,-12.3169,-42.8961,21.92,97,100,0.96,BR,1704675063
268,howrah,22.5892,88.3103,15.0,88,6,3.09,IN,1704675064
269,happy valley-goose bay,53.3168,-60.3315,-13.83,47,100,9.77,CA,1704675065
270,petawawa,45.9001,-77.3328,-6.23,86,96,1.89,CA,1704675066
271,nemuro,43.3236,145.575,-0.19,68,16,8.68,JP,1704675067
272,la'ie,21.6477,-157.9253,28.03,77,16,1.34,US,1704675067
273,rumonge,-3.9736,29.4386,22.75,79,100,1.01,BI,1704675068
274,island harbour,50.724,-1.2758,3.32,75,7,4.02,GB,1704675069
275,fort bragg,35.139,-79.006,10.75,49,0,3.09,US,1704675070
276,northam,51.0333,-4.2167,2.99,78,10,4.65,GB,1704675071
277,mogok,22.9167,96.5,10.62,73,5,0.91,MM,1704675072
278,cantaura,9.3057,-64.3584,25.52,51,21,4.89,VE,1704675073
279,villa de cos,23.2833,-102.35,15.41,23,0,7.49,MX,1704675074
280,moussoro,13.6408,16.4901,18.36,15,0,4.44,TD,1704675075
281,redencao,-4.2258,-38.7306,24.19,89,34,1.51,BR,1704675076
282,canmore,51.0834,-115.3521,-12.29,96,48,1.03,CA,1704674920
283,port-gentil,-0.7193,8.7815,27.26,79,100,5.04,GA,1704675077
284,ribeira brava,32.65,-17.0667,20.56,84,100,2.59,PT,1704675079
285,maharajgani,26.1167,84.4833,12.43,92,0,2.23,IN,1704675080
286,port macquarie,-31.4333,152.9167,29.38,58,100,6.91,AU,1704675081
287,kertih,4.5141,103.4483,27.01,88,40,2.24,MY,1704675083
288,kourou,5.1552,-52.6478,27.03,85,88,2.32,GF,1704675084
289,levis,46.8033,-71.1779,-6.9,81,100,5.66,CA,1704674860
290,aleksandrovsk-sakhalinskiy,50.8975,142.1561,-16.66,89,100,0.43,RU,1704675085
291,suva,-18.1416,178.4415,30.71,70,40,3.6,FJ,1704675087
292,gadzhiyevo,69.2551,33.3362,-3.71,80,100,14.78,RU,1704675087
293,kisangani,0.5167,25.2,20.89,62,21,0.49,CD,1704675088
294,yarovoye,52.9273,78.58,0.76,97,100,9.83,RU,1704675089
295,bam,29.106,58.357,6.77,41,0,1.95,IR,1704675090
296,mugia,43.1041,-9.2179,3.84,68,99,3.84,ES,1704675091
297,waingapu,-9.6567,120.2641,29.88,68,74,1.14,ID,1704675092
298,nova sintra,14.8667,-24.7167,21.76,70,81,4.88,CV,1704675093
299,tabou,4.423,-7.3528,27.16,84,72,3.42,CI,1704675094
300,ghat,24.9647,10.1728,14.15,28,100,0.44,LY,1704675095
301,baddi,30.9578,76.7914,14.04,37,6,1.53,IN,1704675096
302,urangan,-25.3,152.9,27.33,84,54,1.79,AU,1704675097
303,vilyuchinsk,52.9306,158.4028,-15.04,82,17,2.53,RU,1704675098
304,axim,4.8699,-2.2405,26.99,86,76,2.6,GH,1704675100
305,as sulayyil,20.4607,45.5779,14.14,59,0,3.63,SA,1704675101
306,assai,-23.3733,-50.8414,30.92,45,98,1.57,BR,1704675101
307,aasiaat,68.7098,-52.8699,-11.29,77,100,4.4,GL,1704675102
308,homer,59.6425,-151.5483,2.93,93,20,1.54,US,1704675103
309,tidjikja,18.5564,-11.4271,20.17,13,0,4.94,MR,1704675104
310,villa gesell,-37.2639,-56.973,20.03,89,100,0.8,AR,1704675105
311,almazan,41.4865,-2.5309,0.99,94,7,2.47,ES,1704675105
312,izazi,-7.2,35.7333,20.31,91,89,1.12,TZ,1704675106
313,stanley,54.868,-1.6985,2.1,96,75,0.51,GB,1704675107
314,praia da vitoria,38.7333,-27.0667,15.14,88,40,4.95,PT,1704675108
315,carbonear,47.7332,-53.2148,-4.21,75,65,7.06,CA,1704675109
316,nhamunda,-2.1861,-56.7131,24.66,82,26,1.4,BR,1704675109
317,ola,59.5833,151.2833,-30.34,87,18,2.88,RU,1704675110
318,markovo,57.3206,107.0881,-28.81,100,97,1.46,RU,1704675111
319,howard springs,-12.497,131.047,31.6,74,100,1.16,AU,1704675112
320,tiksi,71.6872,128.8694,-33.86,96,44,3.13,RU,1704675112
321,chonchi,-42.6128,-73.8092,14.56,93,32,1.61,CL,1704675113
322,sudzha,51.1976,35.2726,-15.14,88,100,5.77,RU,1704675114
323,luderitz,-26.6481,15.1594,17.69,76,82,12.01,NA,1704675114
324,olyokminsk,60.3736,120.4264,-16.63,85,100,5.88,RU,1704675115
325,la gi,10.6667,107.7833,25.33,72,97,3.82,VN,1704675116
326,gisborne,-38.6533,178.0042,20.18,58,9,4.28,NZ,1704675117
327,palapag,12.5458,125.1147,26.68,90,91,4.89,PH,1704675117
328,sao vicente,-23.9631,-46.3919,29.04,49,2,4.02,BR,1704675118
329,labasa,-16.4167,179.3833,28.8,81,100,2.23,FJ,1704675119
330,fada,9.5667,8.3,19.18,17,0,2.69,NG,1704675120
331,weno,7.4515,151.8468,30.97,62,20,4.63,FM,1704675121
332,pangoa,-12.1167,-73.0,21.89,96,100,0.85,PE,1704675122
333,olean,42.0776,-78.4297,2.38,100,100,0.0,US,1704675123
334,hue,16.4667,107.6,21.06,100,75,1.03,VN,1704675125
335,sabinanigo,42.5192,-0.3661,0.18,76,5,3.24,ES,1704675125
336,mount gambier,-37.8333,140.7667,18.04,80,100,5.26,AU,1704675126
337,jiangyou,31.7667,104.7167,9.89,82,25,0.54,CN,1704675127
338,kruisfontein,-34.0033,24.7314,17.71,90,100,2.9,ZA,1704675128
339,carauari,-4.8828,-66.8958,24.42,94,62,1.39,BR,1704675078
340,le vauclin,14.5452,-60.8388,26.03,73,20,2.57,MQ,1704675130
341,zouerate,22.7187,-12.4521,17.99,42,0,3.14,MR,1704675131
342,al ghayzah,16.2079,52.176,19.04,34,66,6.34,YE,1704675132
343,suez,29.9737,32.5263,14.82,52,0,0.46,EG,1704675133
344,saipan,15.1355,145.701,29.39,79,40,6.69,MP,1704675134
345,susuman,62.7833,148.1667,-38.34,98,96,1.34,RU,1704675135
346,waounde,15.2637,-12.8682,24.98,11,0,4.21,SN,1704675136
347,mili,6.0815,171.735,27.77,80,34,8.1,MH,1704675137
348,boende,-0.2167,20.8667,22.09,88,37,0.97,CD,1704675138
349,tadmur,34.5608,38.2805,12.56,66,100,1.17,SY,1704675139
350,cabo san lucas,22.8909,-109.9124,23.61,52,0,6.17,MX,1704675140
351,jutai,-5.1833,-68.9,26.1,80,59,0.7,BR,1704675142
352,kuanda,56.3161,116.0806,-26.54,100,100,0.6,RU,1704675143
353,mossel bay,-34.1831,22.146,16.96,82,91,0.66,ZA,1704675144
354,santa elena de uairen,4.6167,-61.1333,22.93,54,88,2.28,VE,1704675145
355,divo,5.8397,-5.36,23.5,97,7,1.2,CI,1704675145
356,daru,-9.0763,143.2092,25.73,90,100,3.89,PG,1704675146
357,nynashamn,58.9034,17.9479,-11.05,89,11,4.22,SE,1704675147
358,natal,-5.795,-35.2094,28.12,69,40,4.12,BR,1704675066
359,atafu village,-8.5421,-172.5159,26.63,75,100,1.07,TK,1704675149
360,san antonio de pale,-1.4014,5.6325,27.14,78,8,3.32,GQ,1704675150
361,lijiang,26.8688,100.2207,0.6,57,0,1.77,CN,1704675151
362,yelizovo,53.1873,158.3805,-15.11,65,20,4.0,RU,1704675152
363,egilsstadir,65.2653,-14.3948,4.95,70,0,2.06,IS,1704675153
364,thohoyandou,-22.9456,30.485,20.39,62,5,1.29,ZA,1704675154
365,las veredas,23.1388,-109.7075,23.25,43,0,5.14,MX,1704675154
366,shimoda,34.6667,138.95,9.5,49,17,2.36,JP,1704675155
367,ponte de sor,39.2496,-8.0101,7.06,88,17,1.18,PT,1704675156
368,ambovombe,-25.1667,46.0833,23.31,92,0,2.76,MG,1704675157
369,wladyslawowo,54.7909,18.4009,-5.59,72,79,7.64,PL,1704675158
370,kabansk,52.0486,106.6528,-14.83,96,65,2.21,RU,1704675159
371,santa maria,-29.6842,-53.8069,25.61,89,0,0.0,BR,1704675159
372,phan rang-thap cham,11.5667,108.9833,24.69,67,100,2.99,VN,1704675160
373,rio branco,-9.9747,-67.81,25.34,94,0,0.0,BR,1704675161
374,mahina,-17.5065,-149.489,29.87,70,75,2.06,PF,1704675162
375,kidal,18.4411,1.4078,22.62,13,100,2.93,ML,1704675163
376,tralee,52.2704,-9.7026,1.87,94,7,3.15,IE,1704675164
377,kayangel,8.0823,134.7173,28.42,80,100,7.09,PW,1704675165
378,maych'ew,12.7875,39.5422,9.13,84,14,1.3,ET,1704675167
379,motygino,58.1831,94.7592,-32.9,100,100,0.45,RU,1704675168
380,hays,30.0502,-98.0336,15.16,64,1,4.02,US,1704675169
381,lindsdal,56.7333,16.3,-2.1,74,75,4.12,SE,1704675169
382,rabo de peixe,37.8,-25.5833,16.73,67,40,5.66,PT,1704675170
383,hengchun,22.0042,120.7439,20.8,69,37,9.16,TW,1704675171
384,bonanza,14.0289,-84.591,22.31,84,56,1.31,NI,1704675172
385,bontang,0.1333,117.5,25.99,85,100,3.43,ID,1704675172
386,whitefish,48.4111,-114.3376,-4.14,68,100,3.09,US,1704674587
387,dingcheng,32.1272,115.0394,4.06,73,100,2.68,CN,1704675175
388,asahikawa,43.7678,142.3703,-5.44,86,75,3.09,JP,1704675175
389,port hedland,-20.3167,118.5667,40.03,11,1,7.2,AU,1704675176
390,menzelinsk,55.7271,53.1026,-22.66,100,18,1.34,RU,1704675177
391,garissa,-0.4536,39.6401,25.66,73,10,3.97,KE,1704675177
392,isabela,6.7085,121.9711,30.03,78,100,2.72,PH,1704675178
393,road town,18.4167,-64.6167,25.05,69,5,6.45,VG,1704675179
394,bochum,51.4833,7.2167,-1.38,72,100,4.99,DE,1704675180
395,maroantsetra,-15.4333,49.7333,25.64,91,100,0.75,MG,1704675180
396,marsh harbour,26.5412,-77.0636,22.27,67,80,5.92,BS,1704675181
397,mana,5.6592,-53.7767,25.13,81,9,4.42,GF,1704675182
398,usol'ye,59.4268,56.6808,-27.22,98,100,2.89,RU,1704675183
399,tarawa,1.419,172.984,31.05,74,75,2.57,KI,1704675184
400,monticello,45.3055,-93.7941,-4.95,91,100,0.0,US,1704675073
401,pandan,14.0453,124.1694,26.13,88,88,7.42,PH,1704675186
402,jayapura,-2.5333,140.7,27.66,87,100,2.72,ID,1704675002
403,san julian,21.0167,-102.1667,13.49,60,98,3.38,MX,1704675188
404,horta,38.5333,-28.6333,15.57,76,59,5.36,PT,1704675189
405,flying fish cove,-10.4217,105.6791,25.82,94,100,3.09,CX,1704675190
406,gebeit,21.0667,36.3167,17.91,78,0,2.35,SD,1704675191
407,fulton,33.7668,-84.4499,5.8,74,0,2.06,US,1704675004
408,noumea,-22.2763,166.4572,29.44,99,96,7.36,NC,1704674876
409,okha,53.5739,142.9478,-24.02,93,97,4.23,RU,1704675194
410,inari,68.906,27.0288,-5.89,94,97,1.7,FI,1704675195
411,palghat,10.7833,76.65,24.1,98,100,3.25,IN,1704675195
412,san isidro de curuguaty,-24.5167,-55.7,26.77,53,0,1.65,PY,1704675197
413,richards bay,-28.783,32.0377,23.04,95,100,3.19,ZA,1704675198
414,tadine,-21.55,167.8833,27.62,73,50,4.73,NC,1704675199
415,usogorsk,63.4106,48.6872,-14.63,97,96,2.09,RU,1704675200
416,boguchany,58.3814,97.4531,-27.86,100,93,1.34,RU,1704675202
417,shingu,33.7333,135.9833,6.18,43,28,1.79,JP,1704675203
418,ancud,-41.8697,-73.8203,12.61,88,8,3.68,CL,1704675204
419,maragogi,-9.0122,-35.2225,25.47,81,0,3.24,BR,1704675205
420,santa marta,11.2408,-74.199,30.03,72,20,11.18,CO,1704675206
421,malango,-2.9627,119.9001,23.47,90,100,0.62,ID,1704675207
422,saint-joseph,-21.3667,55.6167,24.21,82,37,3.61,RE,1704675208
423,corumba,-19.0092,-57.6533,30.67,49,60,1.03,BR,1704675210
424,ta`u,-14.2336,-169.5144,28.29,78,55,5.05,AS,1704675211
425,ocean city,39.2776,-74.5746,6.01,75,16,4.47,US,1704675211
426,smara,26.7384,-11.6719,13.05,84,0,2.32,EH,1704675212
427,ostersund,63.1792,14.6357,-9.75,92,75,1.54,SE,1704675214
428,formosa,-26.1775,-58.1781,28.99,81,0,5.14,AR,1704675214
429,rio grande,-32.035,-52.0986,25.06,94,100,3.42,BR,1704675215
430,arraial do cabo,-22.9661,-42.0278,24.53,85,5,5.8,BR,1704675027
431,kasangulu,-4.5911,15.1708,25.49,94,100,1.14,CD,1704675217
432,bac lieu,9.285,105.7244,26.34,74,100,7.89,VN,1704675218
433,hasaki,35.7333,140.8333,5.22,43,0,5.29,JP,1704675219
434,gorgoram,12.6398,10.7039,19.05,14,0,3.83,NG,1704675220
435,thames,-37.1333,175.5333,21.81,66,71,2.32,NZ,1704675221
436,arkalyk,50.2486,66.9114,-1.75,96,100,12.44,KZ,1704675222
437,la foa,-21.7108,165.8276,28.47,65,93,2.91,NC,1704675223
438,xuanzhou,30.9525,118.7553,5.19,64,100,2.0,CN,1704675224
439,atimonan,13.9958,121.905,26.35,83,61,6.52,PH,1704675225
440,holmestrand,59.4876,10.3176,-15.63,84,55,1.91,NO,1704675225
441,condoto,5.0935,-76.6497,24.83,97,83,1.32,CO,1704675226
442,mora,11.0461,14.1401,18.65,21,7,1.58,CM,1704675227
443,baihe,22.15,107.2333,19.37,76,83,1.23,CN,1704675228
444,ende,-8.8432,121.6623,30.29,70,93,0.94,ID,1704675229
445,coyhaique,-45.5752,-72.0662,12.34,62,40,1.54,CL,1704675229
446,bainbridge,47.6262,-122.5212,5.71,90,100,0.45,US,1704675230
447,banjar,-8.19,114.9675,29.45,71,100,0.55,ID,1704675231
448,ixtapa,20.7,-105.2,24.57,73,100,3.09,MX,1704675232
449,malyye derbety,47.9547,44.6808,-4.49,63,100,6.32,RU,1704675233
450,albu kamal,34.45,40.9186,12.56,52,100,3.89,SY,1704675235
451,brookings,44.3114,-96.7984,-6.57,80,0,2.57,US,1704675190
452,urumqi,43.801,87.6005,-15.47,85,75,1.0,CN,1704675237
453,juba,4.8517,31.5825,22.27,31,5,0.83,SS,1704674982
454,san sebastian de la gomera,28.0916,-17.1133,19.2,88,40,2.57,ES,1704675238
455,ulsteinvik,62.3432,5.8487,2.07,69,99,0.45,NO,1704675239
456,fish town,5.1964,-7.8756,22.95,95,5,0.77,LR,1704675240
457,dryden,49.7833,-92.7503,-14.84,85,20,1.54,CA,1704675241
458,novyy turtkul',41.55,61.0167,-0.05,76,79,3.96,UZ,1704675135
459,puerto santa,-8.9906,-78.6456,22.53,82,100,3.28,PE,1704675243
460,nyrob,60.733,56.7202,-31.56,100,100,1.24,RU,1704675244
461,quelimane,-17.8786,36.8883,25.97,88,40,0.0,MZ,1704675245
462,ahvaz,31.3203,48.6693,11.97,62,0,2.06,IR,1704675245
463,dorogobuzh,54.915,33.2972,-24.38,95,100,2.19,RU,1704675247
464,ad dabbah,18.05,30.95,19.07,25,0,4.31,SD,1704675248
465,bodaybo,57.8506,114.1933,-25.29,96,63,1.4,RU,1704675249
466,mermoz boabab,14.7065,-17.4758,22.31,73,0,0.0,SN,1704675250
467,bandon,51.7469,-8.7425,2.77,89,100,1.95,IE,1704675251
468,turkmenbasy,40.0222,52.9552,9.43,53,0,8.75,TM,1704675252
469,riyadh,24.6877,46.7219,10.08,54,0,2.26,SA,1704675253
470,santa cruz,-17.8,-63.1667,27.7,78,20,4.63,BO,1704675072
471,sarakhs,36.5449,61.1577,6.05,55,0,6.31,IR,1704675254
472,tete,-16.1564,33.5867,26.05,78,75,2.24,MZ,1704675255
473,farasan,16.7022,42.1183,26.38,70,0,1.79,SA,1704675256
474,hakui,36.8833,136.7833,2.34,69,99,5.2,JP,1704675257
475,rocha,-34.4833,-54.3333,20.32,97,100,1.34,UY,1704675259
476,nizhniy ingash,56.2,96.53,-25.35,100,100,1.53,RU,1704675260
477,novyy urgal,51.0736,132.5642,-29.65,95,74,0.4,RU,1704675261
478,beyneu,45.3167,55.2,2.64,84,100,2.09,KZ,1704675261
479,rouissat,31.9243,5.3502,7.04,45,0,2.06,DZ,1704675262
480,apple valley,34.5008,-117.1859,6.46,46,1,7.76,US,1704675264
481,timbiqui,2.7717,-77.6654,24.95,93,73,0.91,CO,1704675264
482,castillos,-34.1667,-53.8333,20.57,96,100,2.66,UY,1704675266
483,micheweni,-4.9667,39.8333,26.63,86,14,3.11,TZ,1704675267
484,oroqen zizhiqi,50.5667,123.7167,-19.94,79,100,1.47,CN,1704675268
485,yorkton,51.2167,-102.4677,-16.09,92,100,3.6,CA,1704675173
486,buka,40.8108,69.1986,8.44,86,100,1.71,UZ,1704675270
487,sasovo,54.3537,41.9199,-21.6,97,5,2.24,RU,1704675270
488,khandyga,62.6667,135.6,-49.05,100,95,0.88,RU,1704675271
489,pokrovsk,48.282,37.1758,-6.3,94,100,7.88,UA,1704675272
490,pangai,-19.8,-174.35,29.06,79,75,3.09,TO,1704675273
491,los arabos,22.7281,-80.7214,23.23,87,67,2.98,CU,1704675274
492,templeton,35.5497,-120.706,12.42,52,0,7.2,US,1704675275
493,hammerfest,70.6634,23.6821,-1.75,86,75,3.09,NO,1704675275
494,pesqueira,-8.3578,-36.6964,22.98,61,0,3.26,BR,1704675186
495,sabang,5.8933,95.3214,26.9,84,87,8.99,ID,1704675277
496,loomis,38.8213,-121.193,11.42,58,0,4.12,US,1704675278
497,batticaloa,7.7102,81.6924,25.4,87,100,2.23,LK,1704675175
498,belyy yar,53.6039,91.3903,-13.06,85,100,0.0,RU,1704675280
499,muscat,23.6139,58.5922,21.01,66,0,2.56,OM,1704674993
500,saynshand,44.8824,110.1163,-19.07,93,28,1.68,MN,1704675282
501,palora,-1.7,-77.9333,21.6,85,100,1.22,EC,1704675283
502,chul'man,56.8479,124.9104,-25.82,99,100,0.29,RU,1704675283
503,xinzhou,38.4092,112.7333,-12.43,82,3,0.31,CN,1704675284
504,santa maria da vitoria,-13.3947,-44.1886,22.24,97,100,1.64,BR,1704675142
505,vytegra,61.0064,36.4481,-14.67,96,97,4.17,RU,1704675286
506,bengkulu,-3.8004,102.2655,26.36,79,86,1.04,ID,1704675286
507,sao jose da coroa grande,-8.8978,-35.1478,25.74,81,0,3.41,BR,1704675140
508,thinadhoo,0.5333,72.9333,28.35,75,93,5.48,MV,1704675288
509,sur,22.5667,59.5289,22.12,66,22,4.38,OM,1704675289
510,mersa matruh,31.3525,27.2453,13.11,44,0,5.66,EG,1704675289
511,broken hill,-31.95,141.4333,24.77,52,0,5.77,AU,1704675290
512,al kharj,24.155,47.3346,11.32,50,0,2.82,SA,1704675291
513,general conesa,-40.1,-64.4333,27.82,17,9,6.1,AR,1704675292
514,ust'-ordynskiy,52.805,104.7508,-24.49,100,100,0.7,RU,1704675292
515,bamenda,5.9527,10.1582,17.68,32,80,0.39,CM,1704675293
516,dampit,-8.2116,112.7493,23.34,91,100,0.66,ID,1704675294
517,shira,54.4911,89.9531,-18.53,97,18,1.74,RU,1704675295
518,masuguru,-11.3667,38.4167,22.27,97,100,1.28,TZ,1704675295
519,covington,39.0837,-84.5086,3.1,79,100,3.6,US,1704674838
520,chui,-33.6971,-53.4616,20.39,95,100,4.73,UY,1704675077
521,hami,42.8,93.45,-8.07,74,0,1.53,CN,1704675297
522,klaksvik,62.2266,-6.589,4.51,75,15,5.41,FO,1704675298
523,sihlea,45.5,27.1167,-1.15,89,100,10.43,RO,1704675305
524,cockburn town,21.4612,-71.1419,25.74,78,8,5.62,TC,1704675306
525,minas de marcona,-15.2119,-75.1103,18.08,76,100,5.15,PE,1704675307
526,veinticinco de mayo,-35.4323,-60.1727,20.55,81,95,0.45,AR,1704675308
527,tivoli,41.9609,12.7989,9.5,84,100,1.04,IT,1704675309
528,loreto,22.2667,-101.9667,14.91,50,9,7.99,MX,1704675310
529,uva,56.9908,52.1852,-22.51,98,98,3.16,RU,1704675311
530,tindouf,27.6711,-8.1474,13.25,41,0,2.06,DZ,1704675312
531,pemangkat,1.1667,108.9667,25.05,88,100,2.38,ID,1704675313
532,severo-yeniseyskiy,60.3725,93.0408,-30.79,100,98,1.79,RU,1704675314
533,impfondo,1.6381,18.0667,21.87,42,91,0.06,CG,1704675314
534,usinsk,65.9939,57.5281,-20.52,99,100,1.34,RU,1704675317
535,dubbo,-32.25,148.6167,25.07,69,100,8.75,AU,1704675317
536,songjianghe,42.1859,127.479,-15.08,66,92,2.88,CN,1704675318
537,ozersk,55.7556,60.7028,-21.21,85,79,6.61,RU,1704675319
538,al jawf,29.5,38.75,13.9,65,4,3.47,SA,1704675320
539,vodnyy,63.5046,53.4095,-19.31,99,97,2.25,RU,1704675321
540,sinabang,2.4803,96.3801,27.74,75,85,0.91,ID,1704675322
541,aljezur,37.3191,-8.8033,9.2,60,11,1.26,PT,1704675323
542,smidovich,48.6,133.8167,-22.45,87,100,4.18,RU,1704675324
543,along,28.1667,94.7667,7.69,65,0,0.68,IN,1704675325
544,siwa oasis,29.2041,25.5195,10.98,29,5,3.52,EG,1704675326
545,los alamos,35.8881,-106.307,-3.26,92,100,2.57,US,1704675327
546,qianzhou,28.3167,109.7167,7.31,88,100,0.41,CN,1704675328
547,brokopondo,4.75,-55.1667,25.78,69,100,3.99,SR,1704675328
548,ulimang,7.6242,134.6421,30.23,80,100,6.27,PW,1704675329
549,lagos,6.5833,3.75,27.18,92,0,0.34,NG,1704675047
550,darwin,-12.4611,130.8418,31.64,80,100,1.34,AU,1704675041
551,shima,24.4478,117.8111,14.01,67,4,0.67,CN,1704675332
552,zyrya,40.3661,50.2917,11.05,69,100,11.18,AZ,1704675333
553,duba,27.3513,35.6901,23.5,45,0,2.29,SA,1704675334
554,sarangani,5.4033,125.4636,27.97,75,100,9.12,PH,1704675335
555,gobabis,-22.45,18.9667,23.36,50,61,3.14,NA,1704675336
556,nguigmi,14.2495,13.1092,18.83,19,0,4.9,NE,1704675337
557,tanout,14.9709,8.8879,17.5,17,0,4.75,NE,1704675338
558,saint john,45.2727,-66.0677,-4.43,74,100,6.17,CA,1704675339
559,cadale,2.7603,46.3222,24.97,72,79,9.99,SO,1704675340
560,belo oriente,-19.22,-42.4836,23.86,94,100,1.24,BR,1704675341
561,ifanadiana,-21.3,47.6333,21.89,99,100,0.59,MG,1704675343
562,griffith,41.5284,-87.4237,1.14,86,100,2.57,US,1704675344
563,yugorsk,61.3133,63.3319,-17.28,97,100,3.96,RU,1704675345
564,wismar,53.9,11.4667,-0.42,78,100,6.22,DE,1704675345
565,manismata,-2.4667,111.0333,25.31,94,100,1.04,ID,1704675346
566,hiratacho,35.4333,132.8167,4.01,81,75,3.6,JP,1704675347
567,pechory,57.8164,27.6119,-27.3,95,5,1.77,RU,1704675348
568,peterhead,57.5058,-1.7981,-0.78,72,14,1.26,GB,1704675348
569,presidente epitacio,-21.7633,-52.1156,29.14,43,56,2.89,BR,1704675079
570,monte alegre,-2.0078,-54.0692,23.81,92,91,0.92,BR,1704675350
571,nsanje,-16.92,35.262,23.33,90,100,1.24,MW,1704675351
572,choibalsan,48.0667,114.5,-17.06,83,27,3.4,MN,1704675351
573,serhetabat,35.2799,62.3438,2.5,65,0,1.67,TM,1704675352
574,emerald,-23.5333,148.1667,29.63,55,94,4.78,AU,1704675353
